station_id,站点名称,类型,经度,纬度,容量,区域,需求等级
S001,华苑小区,residential,116.31,39.982,40,北区,高
S002,锦绣家园,residential,116.316,39.978,35,北区,高
S003,阳光新城,residential,116.32,39.984,38,北区,中
S004,绿城花园,residential,116.306,39.978,39,南区,中
S005,科技大厦,business,116.326,39.987,60,中心区,高
S006,金融中心,business,116.329,39.984,70,中心区,高
S007,时代广场,business,116.322,39.989,65,中心区,中
S008,地铁站口,transport,116.321,39.979,50,东区,高
S009,大学城站,education,116.312,39.971,45,西区,高
S010,商业街口,transport,116.33,39.981,55,中心区,中
